time,engine_rpm,engine_torque_nm,throttle_pos_pct,brake_press_front_bar,brake_press_rear_bar,speed_kmh,gear,clutch_slip_rpm,wheel_speed_front_rps,wheel_speed_rear_rps,wheel_slip_rear_pct,lat_accel_g,long_accel_g,vert_accel_g,roll_angle_deg,pitch_angle_deg,yaw_rate_degs,steering_angle_deg,susp_travel_front_mm,susp_travel_rear_mm,damper_vel_front_ms,damper_vel_rear_ms,engine_temp_c,oil_pressure_bar,fuel_flow_lph,lambda_sensor,tire_temp_fl_c,tire_temp_fr_c,tire_temp_rl_c,tire_temp_rr_c,tire_press_fl_bar,tire_press_fr_bar,tire_press_rl_bar,tire_press_rr_bar,glicko_volatility_sigma,glicko_rating,glicko_deviation,lap_distance_m,gps_latitude,gps_longitude,gps_altitude_m,gps_speed_kmh,gps_heading_deg,setup
0.000000,10500.000000,104.285714,100.000000,0.000000,0.000000,92.000000,2,105.000000,13.335387,4.745881,35.000000,0.850000,0.000000,1.000000,-193.418755,0.000000,210.672269,-17.959399,54.677000,54.507750,0.000000,0.000000,98.001667,6.567440,3.675000,0.968740,82.230882,83.316472,86.750000,87.750000,1.902309,1.903165,1.717500,1.717500,0.235909,1499.500000,350.000000,0.255556,36.718602,6.033403,124.718157,92.329658,85.325953,BASELINE
0.010010,10518.555141,104.444758,100.000000,0.000000,0.000000,92.384561,2,105.185551,13.391129,4.754268,35.000000,0.846603,1.088914,1.342404,-192.645854,74.335187,210.707516,-17.803116,108.021584,-9.635701,5.334458,-6.414345,98.003354,6.326601,3.681494,0.970596,81.628877,82.957335,86.750195,87.750195,1.896289,1.899573,1.717502,1.717502,0.235319,1499.000000,350.000000,0.512179,36.718605,6.033406,124.837367,92.505800,86.276817,BASELINE
0.020020,10537.110281,104.603802,100.000000,0.000000,0.000000,92.769468,2,105.371103,13.446921,4.762655,35.000000,0.843220,1.089893,1.354930,-191.876042,74.402053,210.739903,-17.958973,108.003253,-9.743135,-0.001833,-0.010743,98.005062,6.365823,3.687989,0.937402,81.983456,82.704316,86.750390,87.750390,1.899835,1.897043,1.717504,1.717504,0.234728,1498.500000,350.000000,0.769872,36.718607,6.033409,125.211372,92.960279,86.719530,BASELINE
0.030030,10555.665422,104.762846,100.000000,0.000000,0.000000,93.154719,2,105.556654,13.502763,4.771041,35.000000,0.839851,1.090869,1.221123,-191.109305,74.468631,210.769446,-17.208719,107.984981,-9.850122,-0.001827,-0.010699,98.006790,6.148341,3.694483,0.981231,81.981436,82.640809,86.750586,87.750586,1.899814,1.896408,1.717506,1.717506,0.234138,1498.000000,350.000000,1.028635,36.718609,6.033412,124.946009,93.103460,85.243672,BASELINE
0.040040,10574.220562,104.921891,100.000000,0.000000,0.000000,93.540313,2,105.742206,13.558655,4.779428,35.000000,0.836495,1.091840,1.367134,-190.345633,74.534921,210.796160,-17.636631,107.966766,-9.956664,-0.001821,-0.010654,98.008540,6.356287,3.700977,0.926930,81.781871,82.476028,86.750781,87.750781,1.897819,1.894760,1.717508,1.717508,0.233548,1497.500000,350.000000,1.288470,36.718612,6.033414,124.341713,94.137594,83.062189,BASELINE
0.050050,10592.775703,105.080935,100.000000,0.000000,0.000000,93.926248,2,105.927757,13.614596,4.787815,35.000000,0.833152,1.092807,1.394933,-189.585012,74.600923,210.820062,-17.869997,107.948607,-10.062759,-0.001816,-0.010610,98.010309,6.331970,3.707471,0.932984,81.789963,82.591935,86.750976,87.750976,1.897900,1.895919,1.717510,1.717510,0.232957,1497.000000,350.000000,1.549376,36.718614,6.033417,124.811392,94.750997,84.359295,BASELINE
0.060060,10611.330843,105.239979,100.000000,0.000000,0.000000,94.312524,2,106.113308,13.670587,4.796202,35.000000,0.829823,1.093769,1.376880,-188.827430,74.666637,210.841167,-17.198050,107.930503,-10.168409,-0.001810,-0.010565,98.012100,6.219886,3.713966,0.923884,81.945222,82.749665,86.751171,87.751171,1.899452,1.897497,1.717512,1.717512,0.232367,1496.500000,350.000000,1.811355,36.718616,6.033420,124.805594,94.533587,86.183038,BASELINE
0.070070,10629.885984,105.399023,100.000000,0.000000,0.000000,94.699138,2,106.298860,13.726627,4.804588,35.000000,0.826507,1.094728,1.268470,-188.072876,74.732061,210.859490,-17.685054,107.912452,-10.273614,-0.001805,-0.010520,98.013911,6.610557,3.720460,0.958278,82.144420,83.372055,86.751366,87.751366,1.901444,1.903721,1.717514,1.717514,0.231776,1496.000000,350.000000,2.074408,36.718619,6.033423,125.400752,94.886294,85.384817,BASELINE
0.080080,10648.441124,105.558067,100.000000,0.000000,0.000000,95.086089,2,106.484411,13.782715,4.812975,35.000000,0.823204,1.095682,1.327852,-187.321337,74.797196,210.875048,-17.491414,107.894454,-10.378374,-0.001800,-0.010476,98.015742,6.342888,3.726954,0.956627,82.349310,83.114728,86.751562,87.751562,1.903493,1.901147,1.717516,1.717516,0.231186,1495.500000,350.000000,2.338536,36.718621,6.033426,124.500060,95.354315,85.479440,BASELINE
0.090090,10666.996265,105.717111,100.000000,0.000000,0.000000,95.473375,2,106.669963,13.838852,4.821362,35.000000,0.819915,1.096632,1.357304,-186.572802,74.862041,210.887855,-17.362050,107.876505,-10.482690,-0.001795,-0.010432,98.017594,6.403855,3.733449,0.943817,82.191665,82.731579,86.751757,87.751757,1.901917,1.897316,1.717518,1.717518,0.230596,1495.000000,350.000000,2.603740,36.718623,6.033429,124.814518,95.506032,86.561310,BASELINE
0.100100,10685.551405,105.876155,100.000000,0.000000,0.000000,95.860996,2,106.855514,13.895038,4.829748,35.000000,0.816638,1.097577,1.319318,-185.827257,74.926595,210.897928,-16.581584,107.858607,-10.586562,-0.001790,-0.010387,98.019467,6.461848,3.739943,0.960500,81.627276,82.761621,86.751952,87.751952,1.896273,1.897616,1.717520,1.717520,0.230005,1494.500000,350.000000,2.870021,36.718626,6.033432,124.755914,96.265753,85.370657,BASELINE
0.110110,10704.106546,106.035199,100.000000,0.000000,0.000000,96.248948,2,107.041065,13.951271,4.838135,35.000000,0.813375,1.098519,1.359412,-185.084691,74.990859,210.905280,-16.821667,107.840756,-10.689991,-0.001785,-0.010343,98.021361,6.269289,3.746437,0.955762,82.079947,82.811557,86.752147,87.752147,1.900799,1.898116,1.717521,1.717521,0.229415,1494.000000,350.000000,3.137379,36.718628,6.033435,124.949167,96.247218,84.474004,BASELINE
0.120120,10722.661686,106.194243,100.000000,0.000000,0.000000,96.637232,2,107.226617,14.007553,4.846522,35.000000,0.810125,1.099456,1.302346,-184.345093,75.054832,210.909929,-16.794863,107.822952,-10.792978,-0.001780,-0.010299,98.023275,6.518809,3.752932,0.925378,82.243625,82.969805,86.752342,87.752342,1.902436,1.899698,1.717523,1.717523,0.228824,1493.500000,350.000000,3.405816,36.718631,6.033438,125.160767,97.044958,84.366778,BASELINE
0.130130,10741.216827,106.353287,100.000000,0.000000,0.000000,97.025845,2,107.412168,14.063882,4.854909,35.000000,0.806888,1.100389,1.284010,-183.608450,75.118514,210.911889,-16.986664,107.805193,-10.895521,-0.001776,-0.010254,98.025209,6.599004,3.759426,0.931141,81.855508,82.758003,86.752538,87.752538,1.898555,1.897580,1.717525,1.717525,0.228234,1493.000000,350.000000,3.675332,36.718633,6.033441,124.990547,97.039786,82.700059,BASELINE
0.140140,10759.771967,106.512331,100.000000,0.000000,0.000000,97.414787,2,107.597720,14.120259,4.863295,35.000000,0.803663,1.101317,1.321131,-182.874751,75.181903,210.911176,-17.206811,107.787479,-10.997623,-0.001771,-0.010210,98.027165,6.448396,3.765920,0.941592,81.906014,82.992524,86.752733,87.752733,1.899060,1.899925,1.717527,1.717527,0.227644,1492.500000,350.000000,3.945928,36.718635,6.033444,124.870537,98.289719,84.945142,BASELINE
0.150150,10778.327108,106.671375,100.000000,0.000000,0.000000,97.804054,2,107.783271,14.176684,4.871682,35.000000,0.800452,1.102241,1.278354,-182.143984,75.245001,210.907804,-16.963591,107.769807,-11.099284,-0.001767,-0.010166,98.029141,6.516879,3.772414,0.959572,82.097813,82.662229,86.752928,87.752928,1.900978,1.896622,1.717529,1.717529,0.227053,1492.000000,350.000000,4.217606,36.718638,6.033447,125.137123,98.868516,85.057914,BASELINE
0.160160,10796.882248,106.830419,100.000000,0.000000,0.000000,98.193647,2,107.968822,14.233155,4.880069,35.000000,0.797253,1.103161,1.384458,-181.416137,75.307806,210.901790,-16.723678,107.752177,-11.200503,-0.001763,-0.010122,98.031137,6.270214,3.778909,0.958571,82.370664,83.112059,86.753123,87.753123,1.903707,1.901121,1.717531,1.717531,0.226463,1491.500000,350.000000,4.490367,36.718640,6.033450,125.594013,98.128166,83.751436,BASELINE
0.170170,10815.437389,106.989463,100.000000,0.000000,0.000000,98.583563,2,108.154374,14.289673,4.888455,35.000000,0.794067,1.104077,1.330412,-180.691198,75.370318,210.893147,-16.501322,107.734587,-11.301281,-0.001759,-0.010078,98.033154,6.382918,3.785403,0.927485,82.132359,83.154245,86.753318,87.753318,1.901324,1.901542,1.717533,1.717533,0.225872,1491.000000,350.000000,4.764210,36.718643,6.033453,124.806437,98.159089,85.419363,BASELINE
0.180180,10833.992529,107.148507,100.000000,0.000000,0.000000,98.973800,2,108.339925,14.346238,4.896842,35.000000,0.790894,1.104989,1.335774,-179.969157,75.432536,210.881892,-16.541354,107.717036,-11.401620,-0.001755,-0.010034,98.035192,6.495986,3.791897,0.950978,82.211900,82.834927,86.753514,87.753514,1.902119,1.898349,1.717535,1.717535,0.225282,1490.500000,350.000000,5.039137,36.718645,6.033456,124.475283,98.718874,86.193005,BASELINE
0.190190,10852.547670,107.307551,100.000000,0.000000,0.000000,99.364359,2,108.525477,14.402850,4.905229,35.000000,0.787734,1.105896,1.269756,-179.250000,75.494461,210.868039,-16.518043,107.699523,-11.501518,-0.001751,-0.009990,98.037251,6.182213,3.798392,0.961695,82.011624,83.037775,86.753709,87.753709,1.900116,1.900378,1.717537,1.717537,0.224692,1490.000000,350.000000,5.315149,36.718648,6.033460,125.720990,98.948225,85.201288,BASELINE
0.200200,10871.102810,107.466596,100.000000,0.000000,0.000000,99.755235,2,108.711028,14.459507,4.913616,35.000000,0.784586,1.106799,1.304817,-178.533717,75.556092,210.851603,-16.794666,107.682046,-11.600977,-0.001748,-0.009946,98.039330,6.444103,3.804886,0.939678,82.235968,83.193550,86.753904,87.753904,1.902360,1.901935,1.717539,1.717539,0.224101,1489.500000,350.000000,5.592247,36.718650,6.033463,125.507437,99.960499,84.770669,BASELINE
0.210210,10889.657951,107.625640,100.000000,0.000000,0.000000,100.146430,2,108.896580,14.516211,4.922002,35.000000,0.781451,1.107697,1.269601,-177.820297,75.617428,210.832599,-16.516359,107.664605,-11.699998,-0.001744,-0.009902,98.041429,6.482543,3.811380,0.959157,82.364845,83.112495,86.754099,87.754099,1.903648,1.901125,1.717541,1.717541,0.223511,1489.000000,350.000000,5.870431,36.718653,6.033466,125.765652,100.002393,85.031334,BASELINE
0.220220,10908.213091,107.784684,100.000000,0.000000,0.000000,100.537940,2,109.082131,14.572960,4.930389,35.000000,0.778328,1.108591,1.315602,-177.109727,75.678470,210.811043,-16.056589,107.647198,-11.798579,-0.001741,-0.009858,98.043549,6.430832,3.817875,0.939339,82.439834,82.921802,86.754294,87.754294,1.904398,1.899218,1.717543,1.717543,0.222920,1488.500000,350.000000,6.149704,36.718655,6.033469,124.395812,100.091235,84.173454,BASELINE
0.230230,10926.768232,107.943728,100.000000,0.000000,0.000000,100.929764,2,109.267682,14.629755,4.938776,35.000000,0.775218,1.109481,1.349282,-176.401997,75.739217,210.786948,-16.034834,107.629823,-11.896723,-0.001737,-0.009814,98.045690,6.435649,3.824369,0.946020,81.988500,83.348819,86.754489,87.754489,1.899885,1.903488,1.717545,1.717545,0.222330,1488.000000,350.000000,6.430064,36.718658,6.033472,123.659102,100.030063,85.408417,BASELINE
0.240240,10945.323372,108.102772,100.000000,0.000000,0.000000,101.321901,2,109.453234,14.686595,4.947162,35.000000,0.772120,1.110367,1.397062,-175.697095,75.799668,210.760331,-15.529190,107.612480,-11.994429,-0.001734,-0.009771,98.047852,6.481558,3.830863,0.957230,82.121108,83.152099,86.754685,87.754685,1.901211,1.901521,1.717547,1.717547,0.221740,1487.500000,350.000000,6.711514,36.718660,6.033475,124.368075,101.791529,85.798626,BASELINE
0.250250,10963.878513,108.261816,100.000000,0.000000,0.000000,101.714350,2,109.638785,14.743480,4.955549,35.000000,0.769035,1.111248,1.260915,-174.995009,75.859823,210.731205,-16.222078,107.595168,-12.091698,-0.001731,-0.009727,98.050034,6.479252,3.837357,0.942234,81.722470,83.041397,86.754880,87.754880,1.897225,1.900414,1.717549,1.717549,0.221149,1487.000000,350.000000,6.994054,36.718663,6.033478,125.138866,102.244799,85.056219,BASELINE
0.260260,10982.433653,108.420860,100.000000,0.000000,0.000000,102.107107,2,109.824337,14.800411,4.963936,35.000000,0.765962,1.112125,1.318056,-174.295730,75.919682,210.699585,-16.045129,107.577884,-12.188530,-0.001728,-0.009683,98.052237,6.443357,3.843852,0.908488,82.052902,83.250945,86.755075,87.755075,1.900529,1.902509,1.717551,1.717551,0.220559,1486.500000,350.000000,7.277684,36.718665,6.033482,125.030766,102.295937,84.848621,BASELINE
0.270270,11000.988794,108.579904,100.000000,0.000000,0.000000,102.500174,2,110.009888,14.857386,4.972323,35.000000,0.762901,1.112997,1.268882,-173.599244,75.979245,210.665487,-15.509324,107.560629,-12.284926,-0.001726,-0.009640,98.054460,6.466526,3.850346,0.939280,82.317806,82.928515,86.755270,87.755270,1.903178,1.899285,1.717553,1.717553,0.219982,1486.000000,350.000000,7.562407,36.718668,6.033485,125.374583,103.187422,85.777516,BASELINE
0.280280,11019.543934,108.738948,100.000000,0.000000,0.000000,102.893546,2,110.195439,14.914405,4.980709,35.000000,0.759852,1.113865,1.215750,-172.905542,76.038511,210.628924,-16.009833,107.543400,-12.380886,-0.001723,-0.009596,98.056704,6.341714,3.856840,0.941507,82.364994,82.954154,86.755465,87.755465,1.903650,1.899542,1.717555,1.717555,0.219645,1485.500000,350.000000,7.848223,36.718671,6.033488,124.748467,103.103421,85.911344,BASELINE
0.290290,11038.099075,108.897992,100.000000,0.000000,0.000000,103.287224,2,110.380991,14.971468,4.989096,35.000000,0.756816,1.114729,1.331593,-172.214611,76.097480,210.589911,-15.964090,107.526196,-12.476410,-0.001720,-0.009552,98.058968,6.435746,3.863335,0.935664,81.953399,83.145624,86.755661,87.755661,1.899534,1.901456,1.717557,1.717557,0.219307,1485.000000,350.000000,8.135131,36.718673,6.033491,126.716657,103.486781,84.650542,BASELINE
0.300300,11056.654215,109.057036,100.000000,0.000000,0.000000,103.681205,2,110.566542,15.028576,4.997483,35.000000,0.753792,1.115589,1.375349,-171.526442,76.156151,210.548464,-15.698827,107.509017,-12.571500,-0.001718,-0.009509,98.061253,6.456365,3.869829,0.957923,81.956837,82.785594,86.755856,87.755856,1.899568,1.897856,1.717559,1.717559,0.218970,1484.500000,350.000000,8.423135,36.718676,6.033494,124.575000,103.216248,85.597438,BASELINE
0.310310,11075.209356,109.216080,100.000000,0.000000,0.000000,104.075489,2,110.752094,15.085727,5.005869,35.000000,0.750780,1.116444,1.364590,-170.841023,76.214525,210.504595,-15.617759,107.491861,-12.666154,-0.001716,-0.009465,98.063559,6.582387,3.876323,0.955488,82.064795,83.201916,86.756051,87.756051,1.900648,1.902019,1.717561,1.717561,0.218633,1484.000000,350.000000,8.712233,36.718678,6.033498,124.914585,103.228518,85.268444,BASELINE
0.320320,11093.764496,109.375124,100.000000,0.000000,0.000000,104.470072,2,110.937645,15.142922,5.014256,35.000000,0.747780,1.117294,1.276800,-170.158342,76.272601,210.458321,-15.172633,107.474728,-12.760375,-0.001713,-0.009422,98.065886,6.376151,3.882818,0.918852,81.828619,83.045507,86.756246,87.756246,1.898286,1.900455,1.717562,1.717562,0.218295,1483.500000,350.000000,9.002428,36.718681,6.033501,124.284286,103.600874,84.120731,BASELINE
0.330330,11112.319637,109.534168,100.000000,0.000000,0.000000,104.864955,2,111.123196,15.200160,5.022643,35.000000,0.744791,1.118141,1.296182,-169.478390,76.330378,210.409655,-15.407340,107.457615,-12.854162,-0.001711,-0.009379,98.068233,6.361391,3.889312,0.931000,82.197442,82.854430,86.756441,87.756441,1.901974,1.898544,1.717564,1.717564,0.217958,1483.000000,350.000000,9.293720,36.718683,6.033504,125.027955,104.984947,83.005048,BASELINE
0.340340,11130.874777,109.693212,100.000000,0.000000,0.000000,105.260135,2,111.308748,15.257441,5.031030,35.000000,0.741815,1.118983,1.373769,-168.801154,76.387856,210.358611,-14.940840,107.440521,-12.947516,-0.001709,-0.009335,98.070600,6.411661,3.895806,0.941349,81.814156,83.380171,86.756637,87.756637,1.898142,1.903802,1.717566,1.717566,0.217620,1482.500000,350.000000,9.586109,36.718686,6.033507,125.360304,106.563482,86.092969,BASELINE
0.350350,11149.429918,109.852256,100.000000,0.000000,0.000000,105.655611,2,111.494299,15.314766,5.039416,35.000000,0.738851,1.119820,1.310637,-168.126625,76.445036,210.305204,-15.355875,107.423446,-13.040437,-0.001707,-0.009292,98.072989,6.337370,3.902300,0.955880,82.315915,83.303819,86.756832,87.756832,1.903159,1.903038,1.717568,1.717568,0.217283,1482.000000,350.000000,9.879597,36.718689,6.033511,125.191674,106.174946,85.941294,BASELINE
0.360360,11167.985058,110.011300,100.000000,0.000000,0.000000,106.051381,2,111.679851,15.372132,5.047803,35.000000,0.735899,1.120654,1.312089,-167.454791,76.501916,210.249449,-15.378726,107.406389,-13.132925,-0.001706,-0.009249,98.075397,6.404096,3.908795,0.918420,81.990498,83.192707,86.757027,87.757027,1.899905,1.901927,1.717570,1.717570,0.216946,1481.500000,350.000000,10.174184,36.718691,6.033514,125.060658,105.648220,85.479597,BASELINE
0.370370,11186.540199,110.170345,100.000000,0.000000,0.000000,106.447443,2,111.865402,15.429542,5.056190,35.000000,0.732958,1.121482,1.292295,-166.785642,76.558496,210.191358,-14.433984,107.389347,-13.224982,-0.001704,-0.009206,98.077827,6.429359,3.915289,0.973617,81.894786,83.183462,86.757222,87.757222,1.898948,1.901835,1.717572,1.717572,0.216608,1481.000000,350.000000,10.469871,36.718694,6.033517,125.630025,106.653022,84.934610,BASELINE
0.380380,11205.095339,110.329389,100.000000,0.000000,0.000000,106.843797,2,112.050953,15.486993,5.064576,35.000000,0.730029,1.122307,1.212442,-166.119167,76.614777,210.130948,-14.891551,107.372321,-13.316607,-0.001703,-0.009163,98.080277,6.407804,3.921783,0.966233,82.286765,82.824553,86.757417,87.757417,1.902868,1.898246,1.717574,1.717574,0.216271,1480.500000,350.000000,10.766660,36.718697,6.033521,124.681334,107.018315,83.675657,BASELINE
0.390390,11223.650480,110.488433,100.000000,0.000000,0.000000,107.240441,2,112.236505,15.544487,5.072963,35.000000,0.727112,1.123127,1.342647,-165.455355,76.670757,210.068231,-15.101686,107.355308,-13.407801,-0.001701,-0.009119,98.082748,6.642142,3.928278,0.948695,81.771002,83.161751,86.757613,87.757613,1.897710,1.901618,1.717576,1.717576,0.215934,1480.000000,350.000000,11.064550,36.718699,6.033524,124.928752,107.111090,85.220860,BASELINE
0.400400,11242.205620,110.647477,100.000000,0.000000,0.000000,107.637372,2,112.422056,15.602022,5.081350,35.000000,0.724206,1.123943,1.355330,-164.794196,76.726437,210.003222,-14.159593,107.338309,-13.498565,-0.001700,-0.009076,98.085239,6.354189,3.934772,0.972266,81.855734,83.211082,86.757808,87.757808,1.898557,1.902111,1.717578,1.717578,0.215596,1479.500000,350.000000,11.363542,36.718702,6.033527,124.715691,107.546171,84.892449,BASELINE
0.410410,11260.760761,110.806521,100.000000,0.000000,0.000000,108.034590,2,112.607608,15.659598,5.089737,35.000000,0.721312,1.124754,1.398499,-164.135678,76.781816,209.935935,-14.603047,107.321321,-13.588898,-0.001699,-0.009033,98.087751,6.491375,3.941266,0.957088,81.948530,83.043675,86.758003,87.758003,1.899485,1.900437,1.717580,1.717580,0.215259,1479.000000,350.000000,11.663638,36.718705,6.033531,124.872308,108.361605,86.236627,BASELINE
0.420420,11279.315901,110.965565,100.000000,0.000000,0.000000,108.432093,2,112.793159,15.717216,5.098123,35.000000,0.718430,1.125561,1.327849,-163.479792,76.836894,209.866384,-14.661367,107.304343,-13.678801,-0.001698,-0.008990,98.090284,6.469900,3.947761,0.926294,81.872452,82.840289,86.758198,87.758198,1.898725,1.898403,1.717582,1.717582,0.214922,1478.500000,350.000000,11.964839,36.718707,6.033534,124.816090,108.362798,86.521867,BASELINE
0.430430,11297.871042,111.124609,100.000000,0.000000,0.000000,108.829880,2,112.978710,15.774876,5.106510,35.000000,0.715559,1.126363,1.448340,-162.826527,76.891671,209.794583,-14.785200,107.287376,-13.768276,-0.001697,-0.008947,98.092837,6.454631,3.954255,0.996966,82.221070,83.084146,86.758393,87.758393,1.902211,1.900841,1.717584,1.717584,0.214584,1478.000000,350.000000,12.267144,36.718710,6.033537,124.642523,109.266511,85.797162,BASELINE
0.440440,11316.426182,111.283653,100.000000,0.000000,0.000000,109.227948,2,113.164262,15.832575,5.114897,35.000000,0.712700,1.127161,1.356234,-162.175873,76.946146,209.720545,-14.397253,107.270416,-13.857321,-0.001696,-0.008905,98.095411,6.312768,3.960749,0.932291,82.095375,83.137522,86.758589,87.758589,1.900954,1.901375,1.717586,1.717586,0.214247,1477.500000,350.000000,12.570555,36.718713,6.033541,124.624156,108.800408,84.839681,BASELINE
0.450450,11334.981323,111.442697,100.000000,0.000000,0.000000,109.626296,2,113.349813,15.890316,5.123283,35.000000,0.709852,1.127955,1.449456,-161.527818,77.000319,209.644286,-14.788096,107.253464,-13.945938,-0.001695,-0.008862,98.098005,6.365694,3.967243,0.937790,81.878117,83.276393,86.758784,87.758784,1.898781,1.902764,1.717588,1.717588,0.213909,1477.000000,350.000000,12.875072,36.718716,6.033544,125.852380,109.434237,86.182317,BASELINE
0.460460,11353.536463,111.601741,100.000000,0.000000,0.000000,110.024923,2,113.535365,15.948097,5.131670,35.000000,0.707015,1.128744,1.322293,-160.882353,77.054190,209.565817,-14.585251,107.236518,-14.034127,-0.001695,-0.008819,98.100620,6.451675,3.973738,0.957274,81.889199,82.935763,86.758979,87.758979,1.898892,1.899358,1.717590,1.717590,0.213572,1476.500000,350.000000,13.180697,36.718718,6.033548,124.541943,110.556875,85.111977,BASELINE
0.470470,11372.091604,111.760785,100.000000,0.000000,0.000000,110.423828,2,113.720916,16.005918,5.140057,35.000000,0.704190,1.129528,1.341663,-160.239467,77.107759,209.485154,-14.368333,107.219577,-14.121888,-0.001694,-0.008776,98.103256,6.429694,3.980232,0.935460,81.846651,82.767387,86.759174,87.759174,1.898467,1.897674,1.717592,1.717592,0.213235,1476.000000,350.000000,13.487430,36.718721,6.033551,124.947409,110.764489,85.692652,BASELINE
0.480480,11390.646744,111.919829,100.000000,0.000000,0.000000,110.823008,2,113.906467,16.063779,5.148444,35.000000,0.701376,1.130309,1.364297,-159.599151,77.161025,209.402310,-13.813576,107.202640,-14.209223,-0.001694,-0.008733,98.105912,6.604523,3.986726,0.911285,81.853316,83.312314,86.759369,87.759369,1.898533,1.903123,1.717594,1.717594,0.212897,1475.500000,350.000000,13.795272,36.718724,6.033555,125.711077,110.913494,85.090043,BASELINE
0.490490,11409.201885,112.078873,100.000000,0.000000,0.000000,111.222461,2,114.092019,16.121680,5.156830,35.000000,0.698573,1.131085,1.377278,-158.961393,77.213988,209.317299,-14.551735,107.185706,-14.296130,-0.001693,-0.008691,98.108589,6.505050,3.993221,0.945975,81.843016,82.880693,86.759565,87.759565,1.898430,1.898807,1.717596,1.717596,0.212560,1475.000000,350.000000,14.104223,36.718727,6.033558,125.669349,110.926204,85.078795,BASELINE
0.500501,11427.757025,112.237917,100.000000,0.000000,0.000000,111.622188,2,114.277570,16.179620,5.165217,35.000000,0.695782,1.131856,1.270433,-158.326183,77.266648,209.230134,-13.822307,107.168774,-14.382612,-0.001693,-0.008648,98.111286,6.467509,3.999715,0.950852,82.067804,82.518047,86.759760,87.759760,1.900678,1.895180,1.717598,1.717598,0.212223,1474.500000,350.000000,14.414285,36.718729,6.033562,124.926913,111.586117,85.506700,BASELINE
0.510511,11446.312166,112.396961,100.000000,0.000000,0.000000,112.022185,2,114.463122,16.237600,5.173604,35.000000,0.693001,1.132623,1.366286,-157.693512,77.319005,209.140829,-13.703280,107.151843,-14.468668,-0.001693,-0.008606,98.114005,6.474815,4.006209,0.943213,81.873718,82.806805,86.759955,87.759955,1.898737,1.898068,1.717600,1.717600,0.211885,1474.000000,350.000000,14.725457,36.718732,6.033565,125.118648,112.083579,86.874065,BASELINE
0.520521,11464.867306,112.556005,100.000000,0.000000,0.000000,112.422451,2,114.648673,16.295618,5.181990,35.000000,0.690232,1.133385,1.401978,-157.063369,77.371058,209.049397,-14.002144,107.134912,-14.554298,-0.001693,-0.008563,98.116743,6.451714,4.012704,0.943364,82.167382,83.144415,86.760150,87.760150,1.901674,1.901444,1.717602,1.717602,0.211548,1473.500000,350.000000,15.037742,36.718735,6.033569,124.635737,113.319388,85.721196,BASELINE
0.530531,11483.422447,112.715050,100.000000,0.000000,0.000000,112.822985,2,114.834224,16.353676,5.190377,35.000000,0.687474,1.134143,1.307403,-156.435744,77.422807,208.955852,-13.725494,107.117979,-14.639504,-0.001693,-0.008521,98.119503,6.450725,4.019198,0.927854,82.021292,82.825176,86.760345,87.760345,1.900213,1.898252,1.717603,1.717603,0.211211,1473.000000,350.000000,15.351139,36.718738,6.033572,125.118662,113.107725,84.564568,BASELINE
0.540541,11501.977587,112.874094,100.000000,0.000000,0.000000,113.223785,2,115.019776,16.411772,5.198764,35.000000,0.684727,1.134897,1.310380,-155.810627,77.474252,208.860208,-13.346112,107.101044,-14.724285,-0.001693,-0.008478,98.122283,6.467900,4.025692,0.933877,82.052498,83.038005,86.760541,87.760541,1.900525,1.900380,1.717605,1.717605,0.210873,1472.500000,350.000000,15.665650,36.718741,6.033576,125.039161,112.905794,85.871662,BASELINE
0.550551,11520.532728,113.033138,100.000000,0.000000,0.000000,113.624850,2,115.205327,16.469906,5.207151,35.000000,0.681991,1.135646,1.281142,-155.188008,77.525393,208.762478,-13.274735,107.084106,-14.808643,-0.001694,-0.008436,98.125083,6.513825,4.032186,0.942337,81.843270,83.054424,86.760736,87.760736,1.898433,1.900544,1.717607,1.717607,0.210536,1472.000000,350.000000,15.981274,36.718744,6.033579,124.758072,113.334015,84.985559,BASELINE
0.560561,11539.087868,113.192182,100.000000,0.000000,0.000000,114.026178,2,115.390879,16.528078,5.215537,35.000000,0.679266,1.136391,1.346867,-154.567877,77.576229,208.662675,-13.572759,107.067164,-14.892577,-0.001694,-0.008393,98.127904,6.353029,4.038681,0.971488,81.933580,82.819547,86.760931,87.760931,1.899336,1.898195,1.717609,1.717609,0.210198,1471.500000,350.000000,16.298014,36.718746,6.033583,125.882561,114.315908,85.117267,BASELINE
0.570571,11557.643009,113.351226,100.000000,0.000000,0.000000,114.427767,2,115.576430,16.586289,5.223924,35.000000,0.676551,1.137131,1.349564,-153.950224,77.626760,208.560812,-13.373324,107.050216,-14.976087,-0.001695,-0.008351,98.130746,6.483508,4.045175,0.947219,81.728916,82.923442,86.761126,87.761126,1.897289,1.899234,1.717611,1.717611,0.209861,1471.000000,350.000000,16.615868,36.718749,6.033586,124.687804,114.958411,84.804896,BASELINE
0.580581,11576.198149,113.510270,100.000000,0.000000,0.000000,114.829616,2,115.761981,16.644536,5.232311,35.000000,0.673848,1.137867,1.291434,-153.335039,77.676987,208.456903,-13.367000,107.033262,-15.059176,-0.001695,-0.008309,98.133609,6.502788,4.051669,0.926493,82.060520,82.658402,86.761321,87.761321,1.900605,1.896584,1.717613,1.717613,0.209524,1470.500000,350.000000,16.934840,36.718752,6.033590,125.525780,113.449993,85.186447,BASELINE
0.590591,11594.753290,113.669314,100.000000,0.000000,0.000000,115.231724,2,115.947533,16.702822,5.240697,35.000000,0.671155,1.138598,1.378613,-152.722312,77.726908,208.350962,-13.157118,107.016301,-15.141842,-0.001696,-0.008267,98.136492,6.390817,4.058164,0.946920,82.033003,83.162355,86.761517,87.761517,1.900330,1.901624,1.717615,1.717615,0.209186,1470.000000,350.000000,17.254928,36.718755,6.033593,126.018860,114.557879,85.106077,BASELINE
0.600601,11613.308430,113.828358,100.000000,0.000000,0.000000,115.634088,2,116.133084,16.761144,5.249084,35.000000,0.668473,1.139325,1.314567,-152.112034,77.776524,208.243001,-13.133764,106.999331,-15.224086,-0.001697,-0.008224,98.139395,6.513365,4.064658,0.963589,82.364180,83.035027,86.761712,87.761712,1.903642,1.900350,1.717617,1.717617,0.208849,1469.500000,350.000000,17.576134,36.718758,6.033597,125.857103,115.057337,84.816547,BASELINE
0.610611,11631.863571,113.987402,100.000000,0.000000,0.000000,116.036707,2,116.318636,16.819504,5.257471,35.000000,0.665802,1.140047,1.406961,-151.504195,77.825834,208.133033,-13.700385,106.982352,-15.305910,-0.001698,-0.008182,98.142320,6.513234,4.071152,0.956012,81.778055,82.785247,86.761907,87.761907,1.897781,1.897852,1.717619,1.717619,0.208512,1469.000000,350.000000,17.898458,36.718761,6.033601,125.228294,116.017317,85.903096,BASELINE
0.620621,11650.418711,114.146446,100.000000,0.000000,0.000000,116.439579,2,116.504187,16.877900,5.265858,35.000000,0.663141,1.140765,1.336047,-150.898784,77.874838,208.021072,-13.336912,106.965363,-15.387312,-0.001699,-0.008140,98.145265,6.635496,4.077647,0.943948,82.156866,82.969523,86.762102,87.762102,1.901569,1.899695,1.717621,1.717621,0.208174,1468.500000,350.000000,18.221901,36.718764,6.033604,125.213647,116.241941,84.908962,BASELINE
0.630631,11668.973852,114.305490,100.000000,0.000000,0.000000,116.842704,2,116.689739,16.936333,5.274244,35.000000,0.660491,1.141479,1.326212,-150.295793,77.923536,207.907130,-13.335644,106.948362,-15.468294,-0.001700,-0.008098,98.148230,6.295600,4.084141,0.953349,81.883661,82.687254,86.762297,87.762297,1.898837,1.896873,1.717623,1.717623,0.207837,1468.000000,350.000000,18.546464,36.718767,6.033608,125.104170,117.351490,86.118991,BASELINE
0.640641,11687.528992,114.464534,100.000000,0.000000,0.000000,117.246079,2,116.875290,16.994802,5.282631,35.000000,0.657852,1.142187,1.354465,-149.695211,77.971928,207.791221,-12.769844,106.931349,-15.548856,-0.001701,-0.008056,98.151216,6.487832,4.090635,0.978350,81.945149,82.903286,86.762492,87.762492,1.899451,1.899033,1.717625,1.717625,0.207499,1467.500000,350.000000,18.872148,36.718770,6.033611,124.414316,117.059554,86.774248,BASELINE
0.650651,11706.084133,114.623578,100.000000,0.000000,0.000000,117.649703,2,117.060841,17.053308,5.291018,35.000000,0.655223,1.142892,1.377158,-149.097029,78.020014,207.673357,-13.124090,106.914323,-15.628999,-0.001703,-0.008014,98.154223,6.540283,4.097129,0.931242,81.966619,83.125041,86.762688,87.762688,1.899666,1.901250,1.717627,1.717627,0.207162,1467.000000,350.000000,19.198952,36.718772,6.033615,125.140242,116.783068,86.042876,BASELINE
0.660661,11724.639273,114.782622,100.000000,0.000000,0.000000,118.053573,2,117.246393,17.111849,5.299404,35.000000,0.652605,1.143592,1.278333,-148.501238,78.067793,207.553552,-12.514702,106.897283,-15.708723,-0.001704,-0.007972,98.157250,6.423750,4.103624,0.925428,82.011464,83.193343,86.762883,87.762883,1.900115,1.901933,1.717629,1.717629,0.206825,1466.500000,350.000000,19.526879,36.718775,6.033619,125.143293,117.278781,84.693997,BASELINE
0.670671,11743.194414,114.941666,100.000000,0.000000,0.000000,118.457690,2,117.431944,17.170425,5.307791,35.000000,0.649997,1.144287,1.354379,-147.907827,78.115265,207.431819,-12.563238,106.880227,-15.788029,-0.001706,-0.007931,98.160298,6.485070,4.110118,0.960755,81.668286,82.667453,86.763078,87.763078,1.896683,1.896675,1.717631,1.717631,0.206487,1466.000000,350.000000,19.855928,36.718778,6.033623,125.059409,118.393888,86.093003,BASELINE
0.680681,11761.749554,115.100710,100.000000,0.000000,0.000000,118.862050,2,117.617496,17.229037,5.316178,35.000000,0.647400,1.144978,1.327143,-147.316787,78.162430,207.308170,-12.823560,106.863155,-15.866916,-0.001707,-0.007889,98.163367,6.404203,4.116612,0.948696,82.228358,82.914902,86.763273,87.763273,1.902284,1.899149,1.717633,1.717633,0.206150,1465.500000,350.000000,20.186100,36.718781,6.033626,124.979471,118.988831,83.603950,BASELINE
0.690691,11780.304695,115.259755,100.000000,0.000000,0.000000,119.266653,2,117.803047,17.287684,5.324565,35.000000,0.644813,1.145664,1.239118,-146.728110,78.209289,207.182617,-12.564228,106.846067,-15.945386,-0.001709,-0.007847,98.166456,6.541193,4.123107,0.947745,82.178128,82.830428,86.763468,87.763468,1.901781,1.898304,1.717635,1.717635,0.205813,1465.000000,350.000000,20.517397,36.718784,6.033630,124.583794,119.476202,84.305121,BASELINE
0.700701,11798.859835,115.418799,100.000000,0.000000,0.000000,119.671497,2,117.988598,17.346366,5.332951,35.000000,0.642236,1.146346,1.389686,-146.141784,78.255839,207.055175,-13.065044,106.828960,-16.023439,-0.001711,-0.007805,98.169566,6.587390,4.129601,0.947351,82.068587,83.306369,86.763664,87.763664,1.900686,1.903064,1.717637,1.717637,0.205475,1464.500000,350.000000,20.849818,36.718787,6.033634,124.565581,119.046298,85.471132,BASELINE
0.710711,11817.414976,115.577843,100.000000,0.000000,0.000000,120.076580,2,118.174150,17.405083,5.341338,35.000000,0.639670,1.147024,1.308465,-145.557802,78.302083,206.925855,-12.251762,106.811835,-16.101076,-0.001713,-0.007764,98.172697,6.866680,4.136095,0.950203,82.283899,83.231605,86.763859,87.763859,1.902839,1.902316,1.717639,1.717639,0.205138,1464.000000,350.000000,21.183364,36.718790,6.033637,125.066802,120.159818,84.114864,BASELINE
0.720721,11835.970116,115.736887,100.000000,0.000000,0.000000,120.481900,2,118.359701,17.463834,5.349725,35.000000,0.637114,1.147697,1.412505,-144.976153,78.348018,206.794670,-12.756803,106.794689,-16.178296,-0.001715,-0.007722,98.175848,6.417415,4.142590,0.949912,82.342666,83.305673,86.764054,87.764054,1.903427,1.903057,1.717641,1.717641,0.204801,1463.500000,350.000000,21.518036,36.718793,6.033641,125.292450,120.253169,86.211932,BASELINE
0.730731,11854.525257,115.895931,100.000000,0.000000,0.000000,120.887457,2,118.545253,17.522620,5.358111,35.000000,0.634568,1.148365,1.348718,-144.396829,78.393646,206.661633,-12.330940,106.777523,-16.255100,-0.001717,-0.007680,98.179019,6.409166,4.149084,0.946011,82.088966,83.245325,86.764249,87.764249,1.900890,1.902453,1.717642,1.717642,0.204463,1463.000000,350.000000,21.853834,36.718796,6.033645,124.479836,120.145306,85.164782,BASELINE
0.740741,11873.080397,116.054975,100.000000,0.000000,0.000000,121.293248,2,118.730804,17.581439,5.366498,35.000000,0.632032,1.149029,1.410791,-143.819819,78.438966,206.526756,-12.194046,106.760335,-16.331489,-0.001719,-0.007639,98.182212,6.467923,4.155578,0.983804,81.748178,83.079526,86.764444,87.764444,1.897482,1.900795,1.717644,1.717644,0.204126,1462.500000,350.000000,22.190760,36.718799,6.033649,125.277027,120.733163,85.687806,BASELINE
0.750751,11891.635538,116.214019,100.000000,0.000000,0.000000,121.699272,2,118.916355,17.640292,5.374885,35.000000,0.629506,1.149688,1.319926,-143.245115,78.483978,206.390052,-12.379065,106.743125,-16.407464,-0.001721,-0.007597,98.185425,6.381737,4.162072,0.932446,81.686505,82.794424,86.764640,87.764640,1.896865,1.897944,1.717646,1.717646,0.203788,1462.000000,350.000000,22.528813,36.718802,6.033652,124.828803,121.972150,84.770328,BASELINE
0.760761,11910.190678,116.373063,100.000000,0.000000,0.000000,122.105527,2,119.101907,17.699179,5.383272,35.000000,0.626991,1.150343,1.414674,-142.672708,78.528682,206.251534,-11.789474,106.725891,-16.483024,-0.001723,-0.007556,98.188658,6.756172,4.168567,0.969870,82.323779,83.020404,86.764835,87.764835,1.903238,1.900204,1.717648,1.717648,0.203451,1461.500000,350.000000,22.867995,36.718805,6.033656,125.098517,121.381083,84.680771,BASELINE
0.770771,11928.745819,116.532107,100.000000,0.000000,0.000000,122.512012,2,119.287458,17.758099,5.391658,35.000000,0.624485,1.150993,1.356736,-142.102588,78.573077,206.111213,-11.752078,106.708633,-16.558171,-0.001726,-0.007515,98.191912,6.348966,4.175061,0.962050,82.386483,83.412381,86.765030,87.765030,1.903865,1.904124,1.717650,1.717650,0.203114,1461.000000,350.000000,23.208306,36.718808,6.033660,124.653760,122.626405,85.664982,BASELINE
0.780781,11947.300959,116.691151,100.000000,0.000000,0.000000,122.918725,2,119.473010,17.817052,5.400045,35.000000,0.621990,1.151639,1.273287,-141.534746,78.617164,205.969103,-11.853641,106.691350,-16.632904,-0.001728,-0.007473,98.195187,6.581991,4.181555,0.977670,81.843352,83.062550,86.765225,87.765225,1.898434,1.900625,1.717652,1.717652,0.202776,1460.500000,350.000000,23.549747,36.718812,6.033664,124.398245,123.294569,84.952325,BASELINE
0.790791,11965.856100,116.850195,100.000000,0.000000,0.000000,123.325664,2,119.658561,17.876037,5.408432,35.000000,0.619505,1.152281,1.330147,-140.969174,78.660942,205.825215,-12.476261,106.674040,-16.707224,-0.001731,-0.007432,98.198482,6.516548,4.188050,0.954718,82.244596,82.927938,86.765420,87.765420,1.902446,1.899279,1.717654,1.717654,0.202439,1460.000000,350.000000,23.892319,36.718815,6.033668,125.413629,122.292633,87.158455,BASELINE
0.800801,11984.411241,117.009239,100.000000,0.000000,0.000000,123.732828,2,119.844112,17.935056,5.416818,35.000000,0.617029,1.152917,1.331408,-140.405861,78.704412,205.679562,-12.420327,106.656704,-16.781132,-0.001734,-0.007391,98.201799,6.594267,4.194544,0.942280,82.042752,82.534854,86.765616,87.765616,1.900428,1.895349,1.717656,1.717656,0.202102,1459.500000,350.000000,24.236021,36.718818,6.033672,126.132671,123.617167,85.955455,BASELINE
0.810811,12002.966381,117.168283,100.000000,0.000000,0.000000,124.140216,2,120.029664,17.994107,5.425205,35.000000,0.614563,1.153550,1.261576,-139.844799,78.747572,205.532156,-11.749527,106.639339,-16.854628,-0.001736,-0.007350,98.205135,6.600790,4.201038,0.934902,82.037401,83.234604,86.765811,87.765811,1.900374,1.902346,1.717658,1.717658,0.201764,1459.000000,350.000000,24.580855,36.718821,6.033675,125.260645,124.223672,83.760078,BASELINE
0.820821,12021.521522,117.327327,100.000000,0.000000,0.000000,124.547825,2,120.215215,18.053189,5.433592,35.000000,0.612108,1.154177,1.373014,-139.285980,78.790424,205.383009,-11.971784,106.621946,-16.927712,-0.001739,-0.007308,98.208492,6.422050,4.207533,0.922574,82.098259,82.825452,86.766006,87.766006,1.900983,1.898255,1.717660,1.717660,0.201427,1458.500000,350.000000,24.926821,36.718824,6.033679,124.745440,124.849806,85.380604,BASELINE
0.830831,12040.076662,117.486371,100.000000,0.000000,0.000000,124.955655,2,120.400767,18.112304,5.441979,35.000000,0.609662,1.154800,1.409203,-138.729393,78.832966,205.232134,-12.086522,106.604523,-17.000386,-0.001742,-0.007267,98.211870,6.461304,4.214027,0.906294,82.064527,82.757659,86.766201,87.766201,1.900645,1.897577,1.717662,1.717662,0.201090,1458.000000,350.000000,25.273920,36.718827,6.033683,125.023196,125.926294,84.649095,BASELINE
0.840841,12058.631803,117.645415,100.000000,0.000000,0.000000,125.363702,2,120.586318,18.171451,5.450365,35.000000,0.607225,1.155419,1.360080,-138.175031,78.875199,205.079542,-11.574295,106.587070,-17.072649,-0.001745,-0.007226,98.215269,6.420972,4.220521,0.938746,82.341828,83.015805,86.766396,87.766396,1.903418,1.900158,1.717664,1.717664,0.200752,1457.500000,350.000000,25.622153,36.718830,6.033687,125.645405,126.166962,84.685826,BASELINE
0.850851,12077.186943,117.804460,100.000000,0.000000,0.000000,125.771967,2,120.771869,18.230629,5.458752,35.000000,0.604799,1.156033,1.361701,-137.622883,78.917123,204.925247,-12.125446,106.569586,-17.144502,-0.001748,-0.007185,98.218688,6.516178,4.227015,0.951813,81.876998,82.876863,86.766592,87.766592,1.898770,1.898769,1.717666,1.717666,0.200415,1457.000000,350.000000,25.971519,36.718833,6.033691,124.976101,125.870691,83.862725,BASELINE
0.860861,12095.742084,117.963504,100.000000,0.000000,0.000000,126.180447,2,120.957421,18.289838,5.467139,35.000000,0.602382,1.156643,1.293497,-137.072943,78.958737,204.769259,-11.304343,106.552069,-17.215945,-0.001752,-0.007144,98.222128,6.443040,4.233510,0.976604,82.147422,83.587566,86.766787,87.766787,1.901474,1.905876,1.717668,1.717668,0.200077,1456.500000,350.000000,26.322020,36.718836,6.033695,124.526118,125.717204,84.356202,BASELINE
0.870871,12114.297224,118.122548,100.000000,0.000000,0.000000,126.589141,2,121.142972,18.349078,5.475525,35.000000,0.599975,1.157248,1.360678,-136.525199,79.000041,204.611591,-11.632050,106.534520,-17.286980,-0.001755,-0.007103,98.225588,6.388878,4.240004,0.934477,82.033181,83.137052,86.766982,87.766982,1.900332,1.901371,1.717670,1.717670,0.199740,1456.000000,350.000000,26.673657,36.718840,6.033699,124.555670,126.481999,84.533834,BASELINE
0.880881,12132.852365,118.281592,100.000000,0.000000,0.000000,126.998046,2,121.328524,18.408349,5.483912,35.000000,0.597578,1.157848,1.473330,-135.979645,79.041036,204.452254,-11.684498,106.516936,-17.357606,-0.001758,-0.007063,98.229069,6.562676,4.246498,0.964520,81.714826,82.936918,86.767177,87.767177,1.897148,1.899369,1.717672,1.717672,0.199403,1455.500000,350.000000,27.026429,36.718843,6.033703,125.131510,126.509265,83.904311,BASELINE
0.890891,12151.407505,118.440636,100.000000,0.000000,0.000000,127.407163,2,121.514075,18.467650,5.492299,35.000000,0.595190,1.158444,1.355959,-135.436270,79.081721,204.291262,-11.326656,106.499318,-17.427824,-0.001762,-0.007022,98.232570,6.561524,4.252993,0.947616,82.344016,83.398038,86.767372,87.767372,1.903440,1.903980,1.717674,1.717674,0.199065,1455.000000,350.000000,27.380338,36.718846,6.033707,125.175693,127.955228,86.014161,BASELINE
0.900901,12169.962646,118.599680,100.000000,0.000000,0.000000,127.816488,2,121.699626,18.526982,5.500686,35.000000,0.592811,1.159036,1.398430,-134.895067,79.122097,204.128624,-11.852311,106.481665,-17.497634,-0.001765,-0.006981,98.236093,6.492616,4.259487,0.955759,82.152621,82.823998,86.767568,87.767568,1.901526,1.898240,1.717676,1.717676,0.198728,1454.500000,350.000000,27.735384,36.718849,6.033711,124.952739,127.876934,85.174091,BASELINE
0.910911,12188.517786,118.758724,100.000000,0.000000,0.000000,128.226020,2,121.885178,18.586343,5.509072,35.000000,0.590442,1.159623,1.387734,-134.356027,79.162162,203.964355,-11.641056,106.463975,-17.567037,-0.001769,-0.006940,98.239635,6.408153,4.265981,0.973519,81.829558,83.176502,86.767763,87.767763,1.898296,1.901765,1.717678,1.717678,0.198391,1454.000000,350.000000,28.091567,36.718852,6.033715,124.560354,128.910993,85.094342,BASELINE
0.920921,12207.072927,118.917768,100.000000,0.000000,0.000000,128.635758,2,122.070729,18.645735,5.517459,35.000000,0.588083,1.160205,1.365216,-133.819140,79.201917,203.798464,-11.497400,106.446249,-17.636034,-0.001773,-0.006900,98.243199,6.430717,4.272476,0.961254,82.049368,82.821115,86.767958,87.767958,1.900494,1.898211,1.717680,1.717680,0.198053,1453.500000,350.000000,28.448889,36.718856,6.033719,124.649559,128.798300,84.828148,BASELINE
0.930931,12225.628067,119.076812,100.000000,0.000000,0.000000,129.045700,2,122.256281,18.705156,5.525846,35.000000,0.585733,1.160783,1.361781,-133.284399,79.241363,203.630964,-11.183339,106.428484,-17.704624,-0.001776,-0.006859,98.246783,6.602436,4.278970,0.954246,81.950988,83.113758,86.768153,87.768153,1.899510,1.901138,1.717682,1.717682,0.197716,1453.000000,350.000000,28.807349,36.718859,6.033723,124.985768,128.633433,86.117254,BASELINE
0.940941,12244.183208,119.235856,100.000000,0.000000,0.000000,129.455845,2,122.441832,18.764606,5.534232,35.000000,0.583392,1.161356,1.350202,-132.751795,79.280498,203.461867,-11.391733,106.410681,-17.772809,-0.001780,-0.006818,98.250387,6.718657,4.285464,0.912213,82.098755,82.986387,86.768348,87.768348,1.900988,1.899864,1.717683,1.717683,0.197378,1452.500000,350.000000,29.166949,36.718862,6.033727,125.078895,129.507807,85.495648,BASELINE
0.950951,12262.738348,119.394900,100.000000,0.000000,0.000000,129.866190,2,122.627383,18.824086,5.542619,35.000000,0.581061,1.161925,1.367037,-132.221319,79.319322,203.291184,-11.485743,106.392839,-17.840589,-0.001784,-0.006778,98.254013,6.505448,4.291958,0.921453,81.953889,83.023742,86.768544,87.768544,1.899539,1.900237,1.717685,1.717685,0.197041,1452.000000,350.000000,29.527688,36.718865,6.033731,125.960826,128.655067,83.538810,BASELINE
0.960961,12281.293489,119.553944,100.000000,0.000000,0.000000,130.276735,2,122.812935,18.883594,5.551006,35.000000,0.578739,1.162489,1.288571,-131.692962,79.357837,203.118927,-11.060704,106.374956,-17.907964,-0.001788,-0.006738,98.257659,6.644471,4.298453,0.943930,82.277330,83.112682,86.768739,87.768739,1.902773,1.901127,1.717687,1.717687,0.196704,1451.500000,350.000000,29.889568,36.718869,6.033735,124.396048,131.435082,83.584073,BASELINE
0.970971,12299.848629,119.712988,100.000000,0.000000,0.000000,130.687477,2,122.998486,18.943131,5.559393,35.000000,0.576427,1.163049,1.415903,-131.166718,79.396041,202.945107,-11.238797,106.357032,-17.974935,-0.001792,-0.006697,98.261325,6.649895,4.304947,0.964745,82.068972,83.298341,86.768934,87.768934,1.900690,1.902983,1.717689,1.717689,0.196366,1451.000000,350.000000,30.252589,36.718872,6.033739,125.160256,130.479407,84.604040,BASELINE
0.980981,12318.403770,119.872032,100.000000,0.000000,0.000000,131.098416,2,123.184038,19.002697,5.567779,35.000000,0.574123,1.163604,1.320023,-130.642576,79.433935,202.769737,-10.759534,106.339067,-18.041502,-0.001797,-0.006657,98.265012,6.359407,4.311441,0.966694,82.113888,83.026860,86.769129,87.769129,1.901139,1.900269,1.717691,1.717691,0.196029,1450.500000,350.000000,30.616751,36.718875,6.033743,125.964261,131.212010,84.388445,BASELINE
0.990991,12336.958910,120.031076,100.000000,0.000000,0.000000,131.509548,2,123.369589,19.062290,5.576166,35.000000,0.571829,1.164154,1.394262,-130.120528,79.471518,202.592827,-11.315615,106.321059,-18.107666,-0.001801,-0.006616,98.268720,6.454301,4.317936,0.958171,82.085733,83.128403,86.769324,87.769324,1.900857,1.901284,1.717693,1.717693,0.195692,1450.000000,350.000000,30.982055,36.718878,6.033747,124.558968,131.229374,85.200961,BASELINE
1.001001,12355.514051,120.190120,100.000000,0.000000,0.000000,131.920874,2,123.555141,19.121912,5.584553,35.000000,0.569544,1.164700,1.397086,-129.600567,79.508791,202.414388,-11.171268,106.303008,-18.173428,-0.001805,-0.006576,98.272448,6.547905,4.324430,0.979520,81.682293,82.693381,86.769520,87.769520,1.896823,1.896934,1.717695,1.717695,0.195354,1449.500000,350.000000,31.348502,36.718882,6.033751,124.722114,131.897686,86.025491,BASELINE
1.011011,12374.069191,120.349164,100.000000,0.000000,0.000000,132.332391,2,123.740692,19.181561,5.592939,35.000000,0.567268,1.165242,1.310743,-129.082683,79.545753,202.234433,-10.906286,106.284913,-18.238787,-0.001810,-0.006536,98.276197,6.357415,4.330924,0.922975,82.133078,82.945789,86.769715,87.769715,1.901331,1.899458,1.717697,1.717697,0.195017,1449.000000,350.000000,31.716092,36.718885,6.033755,124.668448,132.538976,85.990741,BASELINE
1.021021,12392.624332,120.508209,100.000000,0.000000,0.000000,132.744097,2,123.926243,19.241238,5.601326,35.000000,0.565001,1.165779,1.298222,-128.566869,79.582404,202.052973,-10.997557,106.266773,-18.303745,-0.001814,-0.006496,98.279967,6.509170,4.337419,0.949125,81.872617,83.109259,86.769910,87.769910,1.898726,1.901093,1.717699,1.717699,0.194680,1448.500000,350.000000,32.084826,36.718888,6.033760,124.593845,132.562673,84.752016,BASELINE
1.031031,12411.179472,120.667253,100.000000,0.000000,0.000000,133.155992,2,124.111795,19.300942,5.609713,35.000000,0.562744,1.166311,1.378990,-128.053116,79.618745,201.870019,-10.574533,106.248588,-18.368302,-0.001819,-0.006456,98.283757,6.583907,4.343913,0.965045,82.099825,83.075364,86.770105,87.770105,1.900998,1.900754,1.717701,1.717701,0.194342,1448.000000,350.000000,32.454703,36.718892,6.033764,124.314575,133.198663,83.880211,BASELINE
1.041041,12429.734613,120.826297,100.000000,0.000000,0.000000,133.568073,2,124.297346,19.360673,5.618100,35.000000,0.560495,1.166839,1.371472,-127.541416,79.654775,201.685582,-10.055725,106.230356,-18.432458,-0.001823,-0.006416,98.287568,6.574288,4.350407,0.950135,82.092216,82.754033,86.770300,87.770300,1.900922,1.897540,1.717703,1.717703,0.194005,1447.500000,350.000000,32.825726,36.718895,6.033768,125.966571,133.119976,85.570063,BASELINE
1.051051,12448.289753,120.985341,100.000000,0.000000,0.000000,133.980338,2,124.482898,19.420431,5.626486,35.000000,0.558255,1.167362,1.271272,-127.031760,79.690495,201.499673,-10.512007,106.212078,-18.496213,-0.001828,-0.006376,98.291399,6.671563,4.356901,0.926068,82.184360,82.824139,86.770495,87.770495,1.901844,1.898241,1.717705,1.717705,0.193667,1447.000000,350.000000,33.197893,36.718898,6.033772,125.132350,132.777637,85.946666,BASELINE
1.061061,12466.844894,121.144385,100.000000,0.000000,0.000000,134.392787,2,124.668449,19.480215,5.634873,35.000000,0.556024,1.167881,1.450183,-126.524141,79.725903,201.312304,-10.628797,106.193751,-18.559570,-0.001833,-0.006336,98.295251,6.444566,4.363396,0.954616,81.890284,83.466458,86.770691,87.770691,1.898903,1.904665,1.717707,1.717707,0.193330,1446.500000,350.000000,33.571207,36.718902,6.033776,124.787674,134.531457,84.326311,BASELINE
1.071071,12485.400034,121.303429,100.000000,0.000000,0.000000,134.805417,2,124.854000,19.540026,5.643260,35.000000,0.553802,1.168395,1.324892,-126.018551,79.761001,201.123486,-10.892167,106.175377,-18.622527,-0.001837,-0.006296,98.299124,6.427808,4.369890,0.938838,82.001006,83.244933,86.770886,87.770886,1.900010,1.902449,1.717709,1.717709,0.192993,1446.000000,350.000000,33.945666,36.718905,6.033780,125.084896,134.113674,84.926173,BASELINE
1.081081,12503.955175,121.462473,100.000000,0.000000,0.000000,135.218228,2,125.039552,19.599863,5.651646,35.000000,0.551589,1.168905,1.316247,-125.514981,79.795789,200.933230,-10.626320,106.156953,-18.685085,-0.001842,-0.006256,98.303017,6.540806,4.376384,0.924569,82.328160,82.929195,86.771081,87.771081,1.903282,1.899292,1.717711,1.717711,0.192655,1445.500000,350.000000,34.321272,36.718908,6.033785,125.528331,135.198789,85.679044,BASELINE
1.091091,12522.510315,121.621517,100.000000,0.000000,0.000000,135.631216,2,125.225103,19.659725,5.660033,35.000000,0.549385,1.169410,1.313635,-125.013423,79.830265,200.741547,-9.868096,106.138480,-18.747246,-0.001847,-0.006216,98.306931,6.714676,4.382879,0.888156,82.137605,83.080029,86.771276,87.771276,1.901376,1.900800,1.717713,1.717713,0.192318,1445.000000,350.000000,34.698026,36.718912,6.033789,124.770349,135.150621,84.528127,BASELINE
1.101101,12541.065456,121.780561,100.000000,0.000000,0.000000,136.044382,2,125.410655,19.719614,5.668420,35.000000,0.547190,1.169910,1.288621,-124.513870,79.864431,200.548447,-10.805745,106.119956,-18.809008,-0.001852,-0.006176,98.310866,6.537947,4.389373,0.956723,81.896023,83.026031,86.771471,87.771471,1.898960,1.900260,1.717715,1.717715,0.191981,1444.500000,350.000000,35.075927,36.718915,6.033793,124.818265,136.224018,85.193375,BASELINE
1.111111,12559.620596,121.939605,100.000000,0.000000,0.000000,136.457722,2,125.596206,19.779527,5.676807,35.000000,0.545003,1.170406,1.388414,-124.016313,79.898285,200.353943,-10.142200,106.101381,-18.870374,-0.001858,-0.006137,98.314821,6.610515,4.395867,0.915072,82.082696,82.720575,86.771667,87.771667,1.900827,1.897206,1.717717,1.717717,0.191643,1444.000000,350.000000,35.454976,36.718918,6.033797,124.838815,136.723852,85.876122,BASELINE
1.121121,12578.175737,122.098649,100.000000,0.000000,0.000000,136.871236,2,125.781757,19.839466,5.685193,35.000000,0.542825,1.170897,1.280866,-123.520744,79.931830,200.158044,-9.593071,106.082754,-18.931344,-0.001863,-0.006097,98.318797,6.519208,4.402362,0.940263,82.093944,82.992491,86.771862,87.771862,1.900939,1.899925,1.717719,1.717719,0.191306,1443.500000,350.000000,35.835174,36.718922,6.033802,125.461969,137.408960,83.528664,BASELINE
1.131131,12596.730877,122.257693,100.000000,0.000000,0.000000,137.284923,2,125.967309,19.899430,5.693580,35.000000,0.540656,1.171384,1.371624,-123.027155,79.965063,199.960763,-10.199267,106.064074,-18.991917,-0.001868,-0.006057,98.322793,6.374163,4.408856,0.966002,81.794012,83.260372,86.772057,87.772057,1.897940,1.902604,1.717721,1.717721,0.190969,1443.000000,350.000000,36.216521,36.718925,6.033806,125.523829,137.547304,85.151432,BASELINE
1.141141,12615.286018,122.416737,100.000000,0.000000,0.000000,137.698779,2,126.152860,19.959418,5.701967,35.000000,0.538496,1.171866,1.404615,-122.535539,79.997985,199.762109,-10.819113,106.045341,-19.052094,-0.001873,-0.006018,98.326810,6.640826,4.415350,0.986511,82.069280,82.665084,86.772252,87.772252,1.900693,1.896651,1.717723,1.717723,0.190631,1442.500000,350.000000,36.599018,36.718929,6.033810,125.430618,137.973012,84.282902,BASELINE
1.151151,12633.841158,122.575781,100.000000,0.000000,0.000000,138.112804,2,126.338412,20.019431,5.710353,35.000000,0.536344,1.172344,1.413241,-122.045887,80.030597,199.562093,-10.207127,106.026554,-19.111877,-0.001879,-0.005978,98.330848,6.481210,4.421844,0.899096,81.949632,82.885479,86.772447,87.772447,1.899496,1.898855,1.717724,1.717724,0.190294,1442.000000,350.000000,36.982664,36.718932,6.033814,125.370754,137.243898,85.202148,BASELINE
1.161161,12652.396299,122.734825,100.000000,0.000000,0.000000,138.526996,2,126.523963,20.079468,5.718740,35.000000,0.534201,1.172817,1.320719,-121.558192,80.062898,199.360727,-9.692066,106.007713,-19.171265,-0.001884,-0.005939,98.334906,6.470629,4.428339,0.950648,81.914001,83.531774,86.772643,87.772643,1.899140,1.905318,1.717726,1.717726,0.189956,1441.500000,350.000000,37.367461,36.718936,6.033819,125.612084,137.729789,86.152431,BASELINE
1.171171,12670.951439,122.893869,100.000000,0.000000,0.000000,138.941354,2,126.709514,20.139529,5.727127,35.000000,0.532066,1.173286,1.379275,-121.072445,80.094888,199.158020,-10.348201,105.988816,-19.230260,-0.001890,-0.005899,98.338985,6.637969,4.434833,0.950824,81.670478,83.153417,86.772838,87.772838,1.896705,1.901534,1.717728,1.717728,0.189619,1441.000000,350.000000,37.753410,36.718939,6.033823,123.975660,138.247957,84.524041,BASELINE
1.181181,12689.506580,123.052914,100.000000,0.000000,0.000000,139.355875,2,126.895066,20.199614,5.735514,35.000000,0.529940,1.173750,1.391304,-120.588640,80.126568,198.953985,-10.362451,105.969864,-19.288861,-0.001895,-0.005860,98.343084,6.452640,4.441327,0.958947,81.999116,82.829586,86.773033,87.773033,1.899991,1.898296,1.717730,1.717730,0.189282,1440.500000,350.000000,38.140509,36.718943,6.033827,125.152346,139.250342,84.188658,BASELINE
1.191191,12708.061720,123.211958,100.000000,0.000000,0.000000,139.770559,2,127.080617,20.259723,5.743900,35.000000,0.527822,1.174210,1.334286,-120.106768,80.157937,198.748630,-10.085646,105.950855,-19.347069,-0.001901,-0.005821,98.347204,6.519988,4.447822,0.945031,81.667636,83.152421,86.773228,87.773228,1.896676,1.901524,1.717732,1.717732,0.188944,1440.000000,350.000000,38.528761,36.718946,6.033832,124.529815,139.649424,86.815769,BASELINE
1.201201,12726.616861,123.371002,100.000000,0.000000,0.000000,140.185404,2,127.266169,20.319854,5.752287,35.000000,0.525713,1.174665,1.311248,-119.626821,80.188995,198.541967,-10.026921,105.931789,-19.404884,-0.001907,-0.005782,98.351345,6.319375,4.454316,0.943892,81.952592,82.786235,86.773423,87.773423,1.899526,1.897862,1.717734,1.717734,0.188607,1439.500000,350.000000,38.918165,36.718950,6.033836,124.989614,140.778607,85.280311,BASELINE
1.211211,12745.172001,123.530046,100.000000,0.000000,0.000000,140.600407,2,127.451720,20.380009,5.760674,35.000000,0.523612,1.175115,1.395696,-119.148793,80.219742,198.334007,-9.810784,105.912665,-19.462308,-0.001912,-0.005742,98.355506,6.670423,4.460810,0.955441,82.241829,83.390159,86.773619,87.773619,1.902418,1.903902,1.717736,1.717736,0.188270,1439.000000,350.000000,39.308721,36.718953,6.033841,124.923062,139.948357,86.088121,BASELINE
1.221221,12763.727142,123.689090,100.000000,0.000000,0.000000,141.015568,2,127.637271,20.440186,5.769060,35.000000,0.521520,1.175561,1.410285,-118.672674,80.250179,198.124760,-10.098496,105.893482,-19.519341,-0.001918,-0.005703,98.359688,6.496010,4.467304,0.935616,82.188736,82.734983,86.773814,87.773814,1.901887,1.897350,1.717738,1.717738,0.187932,1438.500000,350.000000,39.700431,36.718957,6.033845,125.443280,140.645863,84.979597,BASELINE
1.231231,12782.282282,123.848134,100.000000,0.000000,0.000000,141.430885,2,127.822823,20.500387,5.777447,35.000000,0.519436,1.176002,1.376153,-118.198458,80.280306,197.914236,-9.930919,105.874241,-19.575982,-0.001924,-0.005664,98.363891,6.510988,4.473799,0.990236,81.849503,83.168592,86.774009,87.774009,1.898495,1.901686,1.717740,1.717740,0.187595,1438.000000,350.000000,40.093295,36.718960,6.033849,124.749596,141.431101,84.453095,BASELINE
1.241241,12800.837423,124.007178,100.000000,0.000000,0.000000,141.846357,2,128.008374,20.560609,5.785834,35.000000,0.517360,1.176439,1.364965,-117.726138,80.310122,197.702446,-9.707277,105.854940,-19.632234,-0.001930,-0.005625,98.368114,6.507832,4.480293,0.933028,82.025285,83.193758,86.774204,87.774204,1.900253,1.901938,1.717742,1.717742,0.187258,1437.500000,350.000000,40.487313,36.718964,6.033854,125.297553,142.429307,83.678547,BASELINE
1.251251,12819.392563,124.166222,100.000000,0.000000,0.000000,142.261980,2,128.193926,20.620854,5.794221,35.000000,0.515293,1.176871,1.333398,-117.255704,80.339628,197.489400,-9.885733,105.835578,-19.688096,-0.001936,-0.005586,98.372357,6.453272,4.486787,0.927356,81.915002,82.867021,86.774399,87.774399,1.899150,1.898670,1.717744,1.717744,0.186920,1437.000000,350.000000,40.882485,36.718967,6.033858,124.829418,141.977182,83.669221,BASELINE
1.261261,12837.947704,124.325266,100.000000,0.000000,0.000000,142.677755,2,128.379477,20.681120,5.802607,35.000000,0.513234,1.177299,1.400108,-116.787150,80.368823,197.275108,-9.755237,105.816156,-19.743568,-0.001942,-0.005547,98.376622,6.445011,4.493282,0.931430,82.088581,82.918261,86.774595,87.774595,1.900886,1.899183,1.717746,1.717746,0.186583,1436.500000,350.000000,41.278812,36.718971,6.033863,125.296955,141.949102,85.053984,BASELINE
1.271271,12856.502844,124.484310,100.000000,0.000000,0.000000,143.093679,2,128.565028,20.741408,5.810994,35.000000,0.511183,1.177722,1.283198,-116.320469,80.397708,197.059582,-9.476629,105.796672,-19.798652,-0.001948,-0.005508,98.380907,6.611247,4.499776,0.930775,82.252256,83.287029,86.774790,87.774790,1.902523,1.902870,1.717748,1.717748,0.186245,1436.000000,350.000000,41.676294,36.718974,6.033867,124.264968,143.469254,84.734261,BASELINE
1.281281,12875.057985,124.643354,100.000000,0.000000,0.000000,143.509752,2,128.750580,20.801718,5.819381,35.000000,0.509140,1.178140,1.313843,-115.855653,80.426283,196.842831,-9.469594,105.777126,-19.853348,-0.001955,-0.005470,98.385212,6.394863,4.506270,0.935983,81.881046,82.939631,86.774985,87.774985,1.898810,1.899396,1.717750,1.717750,0.185908,1435.500000,350.000000,42.074933,36.718978,6.033872,125.529358,143.322020,86.263953,BASELINE
1.291291,12893.613125,124.802398,100.000000,0.000000,0.000000,143.925970,2,128.936131,20.862049,5.827767,35.000000,0.507106,1.178555,1.318752,-115.392694,80.454547,196.624865,-9.890535,105.757517,-19.907657,-0.001961,-0.005431,98.389539,6.569018,4.512765,0.966811,81.892747,82.964807,86.775180,87.775180,1.898927,1.899648,1.717752,1.717752,0.185571,1435.000000,350.000000,42.474727,36.718982,6.033876,124.921065,144.556618,85.328402,BASELINE
1.301301,12912.168266,124.961442,100.000000,0.000000,0.000000,144.342333,2,129.121683,20.922401,5.836154,35.000000,0.505079,1.178964,1.413496,-114.931585,80.482502,196.405694,-9.214916,105.737845,-19.961578,-0.001967,-0.005392,98.393886,6.728312,4.519259,0.926956,82.260567,83.276015,86.775375,87.775375,1.902606,1.902760,1.717754,1.717754,0.185233,1434.500000,350.000000,42.875678,36.718985,6.033880,125.514871,144.601661,86.189428,BASELINE
1.311311,12930.723406,125.120486,100.000000,0.000000,0.000000,144.758839,2,129.307234,20.982773,5.844541,35.000000,0.503061,1.179369,1.368010,-114.472318,80.510147,196.185330,-9.046425,105.718109,-20.015113,-0.001974,-0.005353,98.398253,6.604384,4.525753,0.954882,81.906554,83.405715,86.775571,87.775571,1.899066,1.904057,1.717756,1.717756,0.184896,1434.000000,350.000000,43.277786,36.718989,6.033885,124.591924,144.934905,84.437844,BASELINE
1.321321,12949.278547,125.279530,100.000000,0.000000,0.000000,145.175486,2,129.492785,21.043166,5.852927,35.000000,0.501051,1.179769,1.331210,-114.014887,80.537481,195.963781,-9.189878,105.698309,-20.068262,-0.001980,-0.005315,98.402641,6.599580,4.532247,0.967462,81.729557,83.138039,86.775766,87.775766,1.897296,1.901380,1.717758,1.717758,0.184559,1433.500000,350.000000,43.681051,36.718992,6.033890,125.402723,145.080207,83.781227,BASELINE
1.331331,12967.833687,125.438574,100.000000,0.000000,0.000000,145.592273,2,129.678337,21.103579,5.861314,35.000000,0.499049,1.180165,1.379582,-113.559284,80.564506,195.741058,-9.063474,105.678444,-20.121026,-0.001987,-0.005276,98.407050,6.400868,4.538742,0.980896,81.782570,82.638583,86.775961,87.775961,1.897826,1.896386,1.717760,1.717760,0.184221,1433.000000,350.000000,44.085474,36.718996,6.033894,124.727879,146.634471,85.462520,BASELINE
